metadata:
  last_updated: '2025-02-23'
  data_sources:
  - name: Arizona Trail Association (ATA)
    description: Official passage information, maps, and resources
    url: https://aztrail.org/explore/passages/
    last_updated: '2025-02-23'
passages:
- number: '1'
  name: Huachuca Mountains
  resources:
    info_page: https://aztrail.org/explore/passages/passage-1-huachuca-mountains
    map_url: https://aztrailmedia.s3.us-west-1.amazonaws.com/wp-content/uploads/2018/01/01_HuachucaMountains.pdf
    profile_url: https://aztrailmedia.s3.us-west-1.amazonaws.com/wp-content/uploads/2018/01/01-huachucamountains.png
    track_url: https://aztrailmedia.s3.us-west-1.amazonaws.com/wp-content/uploads/2024/06/Arizona-Trail-History-Passage-1.pdf
  access_points:
  - type: southern
    name: Mexico Border
    coordinates:
      lat: 31.33367
      lon: -110.28276
  - type: northern
    name: Parker Canyon Lake Trailhead
    coordinates:
      lat: 31.41946
      lon: -110.44206
  length_miles: 20.3
  elevation:
    start_ft: 5905.0
    end_ft: 5667.0
    min_ft: 5517.0
    max_ft: 9098.0
    total_gain_ft: 4682.0
    total_loss_ft: 4919.0
    avg_grade_pct: 11.5
    max_grade_pct: 74.8
    per_mile_ft: 11.7
  coordinates:
    start:
      lat: 31.33361
      lon: -110.28276
    end:
      lat: 31.41941
      lon: -110.4419
- number: '2'
  name: Canelo Hills East
  resources:
    info_page: https://aztrail.org/explore/passages/passage-2-canelo-hills-east
    map_url: https://aztrailmedia.s3.us-west-1.amazonaws.com/wp-content/uploads/2024/10/2-canelo-hills-east.pdf
    profile_url: https://aztrailmedia.s3.us-west-1.amazonaws.com/wp-content/uploads/2018/01/02-canelohillseast.png
    track_url: https://aztrailmedia.s3.us-west-1.amazonaws.com/wp-content/uploads/2024/06/Arizona-Trail-History-Passage-2.pdf
  access_points:
  - type: southern
    name: Parker Canyon Lake Trailhead
    coordinates:
      lat: 31.41959
      lon: -110.44178
  - type: northern
    name: Canelo Pass
    coordinates:
      lat: 31.51287
      lon: -110.55827
  length_miles: 13.6
  elevation:
    start_ft: 5668.0
    end_ft: 5339.0
    min_ft: 5191.0
    max_ft: 6043.0
    total_gain_ft: 2377.0
    total_loss_ft: 2707.0
    avg_grade_pct: 8.7
    max_grade_pct: 38.7
    per_mile_ft: 24.3
  coordinates:
    start:
      lat: 31.41941
      lon: -110.4419
    end:
      lat: 31.51288
      lon: -110.55828
- number: '3'
  name: Canelo Hills West
  resources:
    info_page: https://aztrail.org/explore/passages/passage-3-canelo-hills-west
    map_url: https://aztrailmedia.s3.us-west-1.amazonaws.com/wp-content/uploads/2018/01/03_CaneloHillsWest.pdf
    profile_url: https://aztrailmedia.s3.us-west-1.amazonaws.com/wp-content/uploads/2018/01/03-canelohillswest.png
    track_url: https://aztrailmedia.s3.us-west-1.amazonaws.com/wp-content/uploads/2020/06/Arizona-Trail-History-Passage-3.pdf
  access_points:
  - type: southern
    name: Canelo Pass
    coordinates:
      lat: 31.51291
      lon: -110.55819
  - type: northern
    name: Casa Blanca Canyon Trailhead
    coordinates:
      lat: 31.6001955
      lon: -110.7244627
  length_miles: 17.7
  elevation:
    start_ft: 5340.0
    end_ft: 4263.0
    min_ft: 4256.0
    max_ft: 5580.0
    total_gain_ft: 1576.0
    total_loss_ft: 2652.0
    avg_grade_pct: 5.8
    max_grade_pct: 25.5
    per_mile_ft: 60.7
  coordinates:
    start:
      lat: 31.51288
      lon: -110.55828
    end:
      lat: 31.59602
      lon: -110.72428
- number: '4'
  name: Casa Blanca Canyon
  resources:
    info_page: https://aztrail.org/explore/passages/passage-4-casa-blanca-canyons
    map_url: https://aztrailmedia.s3.us-west-1.amazonaws.com/wp-content/uploads/2022/09/access-map-passage-4-casa-blanca-canyons.pdf
    profile_url: https://aztrailmedia.s3.us-west-1.amazonaws.com/wp-content/uploads/2022/09/04-casablancacanyon.png
    track_url: https://aztrailmedia.s3.us-west-1.amazonaws.com/wp-content/uploads/2020/06/Arizona-Trail-History-Passage-4.pdf
  access_points:
  - type: southern
    name: Casa Blanca Canyon Trailhead
    coordinates:
      lat: 31.6001955
      lon: -110.7244627
  - type: northern
    name: Apache Springs Trailhead
    coordinates:
      lat: 31.71873
      lon: -110.75704
  length_miles: 20.3
  elevation:
    start_ft: 4263.0
    end_ft: 5225.0
    min_ft: 4263.0
    max_ft: 5490.0
    total_gain_ft: 3658.0
    total_loss_ft: 2697.0
    avg_grade_pct: 9.5
    max_grade_pct: 54.0
    per_mile_ft: 47.3
  coordinates:
    start:
      lat: 31.59602
      lon: -110.7243
    end:
      lat: 31.71905
      lon: -110.75663
- number: '5'
  name: Santa Rita Mountains
  resources:
    info_page: https://aztrail.org/explore/passages/passage-5-santa-rita-mountains
    map_url: https://aztrailmedia.s3.us-west-1.amazonaws.com/wp-content/uploads/2018/01/05_SantaRitaMountains.pdf
    profile_url: https://aztrailmedia.s3.us-west-1.amazonaws.com/wp-content/uploads/2018/01/05-santaritamountains.png
    track_url: https://aztrailmedia.s3.us-west-1.amazonaws.com/wp-content/uploads/2024/06/Arizona-Trail-History-Passage-5.pdf
  access_points:
  - type: southern
    name: Apache Springs Trailhead
    coordinates:
      lat: 31.71873
      lon: -110.75704
  - type: northern
    name: Oak Tree Canyon Trailhead
    coordinates:
      lat: 31.81072
      lon: -110.7233
  length_miles: 13.6
  elevation:
    start_ft: 5221.0
    end_ft: 5211.0
    min_ft: 4999.0
    max_ft: 5853.0
    total_gain_ft: 1863.0
    total_loss_ft: 1874.0
    avg_grade_pct: 6.6
    max_grade_pct: 39.6
    per_mile_ft: 0.8
  coordinates:
    start:
      lat: 31.71899
      lon: -110.75689
    end:
      lat: 31.81055
      lon: -110.72346
